{"type":"FeatureCollection","features":[{"type":"Feature","properties":{"name":"Acatenango"},"geometry":{"type":"Point","coordinates":[-90.876,14.501]}},{"type":"Feature","properties":{"name":"Acigol-Nevsehir"},"geometry":{"type":"Point","coordinates":[34.621,38.537]}},{"type":"Feature","properties":{"name":"Adams"},"geometry":{"type":"Point","coordinates":[-121.49,46.206]}},{"type":"Feature","properties":{"name":"Adwa"},"geometry":{"type":"Point","coordinates":[40.84,10.07]}},{"type":"Feature","properties":{"name":"Afdera"},"geometry":{"type":"Point","coordinates":[40.853,13.088]}},{"type":"Feature","properties":{"name":"Agua"},"geometry":{"type":"Point","coordinates":[-90.743,14.465]}},{"type":"Feature","properties":{"name":"Agua de Pau"},"geometry":{"type":"Point","coordinates":[-25.47,37.77]}},{"type":"Feature","properties":{"name":"Aguilera"},"geometry":{"type":"Point","coordinates":[-73.75,-50.33]}},{"type":"Feature","properties":{"name":"Agung"},"geometry":{"type":"Point","coordinates":[115.508,-8.343]}},{"type":"Feature","properties":{"name":"Akademia Nauk"},"geometry":{"type":"Point","coordinates":[159.45,53.98]}},{"type":"Feature","properties":{"name":"Akutan"},"geometry":{"type":"Point","coordinates":[-165.986,54.134]}},{"type":"Feature","properties":{"name":"Alaid"},"geometry":{"type":"Point","coordinates":[155.565,50.861]}},{"type":"Feature","properties":{"name":"Alayta"},"geometry":{"type":"Point","coordinates":[40.573,12.888]}},{"type":"Feature","properties":{"name":"Alcedo"},"geometry":{"type":"Point","coordinates":[-91.12,-0.43]}},{"type":"Feature","properties":{"name":"Ale Bagu"},"geometry":{"type":"Point","coordinates":[40.631,13.512]}},{"type":"Feature","properties":{"name":"Alid"},"geometry":{"type":"Point","coordinates":[39.92,14.88]}},{"type":"Feature","properties":{"name":"Aliso"},"geometry":{"type":"Point","coordinates":[-78,-0.53]}},{"type":"Feature","properties":{"name":"Alligator Lake"},"geometry":{"type":"Point","coordinates":[-135.42,60.42]}},{"type":"Feature","properties":{"name":"Almolonga"},"geometry":{"type":"Point","coordinates":[-91.519,14.797]}},{"type":"Feature","properties":{"name":"Alney-Chashakondzha"},"geometry":{"type":"Point","coordinates":[159.647,56.656]}},{"type":"Feature","properties":{"name":"Alu-Dalafilla"},"geometry":{"type":"Point","coordinates":[40.553,13.793]}},{"type":"Feature","properties":{"name":"Alutu"},"geometry":{"type":"Point","coordinates":[38.78,7.77]}},{"type":"Feature","properties":{"name":"Amak"},"geometry":{"type":"Point","coordinates":[-163.149,55.424]}},{"type":"Feature","properties":{"name":"Amasing"},"geometry":{"type":"Point","coordinates":[127.48,-0.53]}},{"type":"Feature","properties":{"name":"Ambae"},"geometry":{"type":"Point","coordinates":[167.835,-15.389]}},{"type":"Feature","properties":{"name":"Ambalatungan Group"},"geometry":{"type":"Point","coordinates":[121.1,17.32]}},{"type":"Feature","properties":{"name":"Ambang"},"geometry":{"type":"Point","coordinates":[124.42,0.75]}},{"type":"Feature","properties":{"name":"Ambitle"},"geometry":{"type":"Point","coordinates":[153.65,-4.08]}},{"type":"Feature","properties":{"name":"Ambre-Bobaomby"},"geometry":{"type":"Point","coordinates":[49.15,-12.6]}},{"type":"Feature","properties":{"name":"Ambrym"},"geometry":{"type":"Point","coordinates":[168.12,-16.25]}},{"type":"Feature","properties":{"name":"Amsterdam Island"},"geometry":{"type":"Point","coordinates":[77.52,-37.83]}},{"type":"Feature","properties":{"name":"Amukta"},"geometry":{"type":"Point","coordinates":[-171.252,52.5]}},{"type":"Feature","properties":{"name":"Anaun"},"geometry":{"type":"Point","coordinates":[158.83,56.32]}},{"type":"Feature","properties":{"name":"Andahua-Orcopampa"},"geometry":{"type":"Point","coordinates":[-72.33,-15.42]}},{"type":"Feature","properties":{"name":"Andrus"},"geometry":{"type":"Point","coordinates":[-132.33,-75.8]}},{"type":"Feature","properties":{"name":"Aneityum"},"geometry":{"type":"Point","coordinates":[169.78,-20.2]}},{"type":"Feature","properties":{"name":"Aniakchak"},"geometry":{"type":"Point","coordinates":[-158.17,56.88]}},{"type":"Feature","properties":{"name":"Antillanca Volcanic Complex"},"geometry":{"type":"Point","coordinates":[-72.15,-40.783]}},{"type":"Feature","properties":{"name":"Antisana"},"geometry":{"type":"Point","coordinates":[-78.141,-0.481]}},{"type":"Feature","properties":{"name":"Antuco"},"geometry":{"type":"Point","coordinates":[-71.349,-37.406]}},{"type":"Feature","properties":{"name":"Apagado"},"geometry":{"type":"Point","coordinates":[-72.58,-41.88]}},{"type":"Feature","properties":{"name":"Apaneca Range"},"geometry":{"type":"Point","coordinates":[-89.786,13.891]}},{"type":"Feature","properties":{"name":"Apastepeque Field"},"geometry":{"type":"Point","coordinates":[-88.77,13.72]}},{"type":"Feature","properties":{"name":"Apo"},"geometry":{"type":"Point","coordinates":[125.269,6.989]}},{"type":"Feature","properties":{"name":"Apoyeque"},"geometry":{"type":"Point","coordinates":[-86.342,12.242]}},{"type":"Feature","properties":{"name":"Aragats"},"geometry":{"type":"Point","coordinates":[44.2,40.53]}},{"type":"Feature","properties":{"name":"Ararat"},"geometry":{"type":"Point","coordinates":[44.3,39.7]}},{"type":"Feature","properties":{"name":"Arayat"},"geometry":{"type":"Point","coordinates":[120.742,15.2]}},{"type":"Feature","properties":{"name":"Ardoukoba"},"geometry":{"type":"Point","coordinates":[42.47,11.58]}},{"type":"Feature","properties":{"name":"Arenal"},"geometry":{"type":"Point","coordinates":[-84.703,10.463]}},{"type":"Feature","properties":{"name":"Arjuno-Welirang"},"geometry":{"type":"Point","coordinates":[112.575,-7.733]}},{"type":"Feature","properties":{"name":"Arxan-Chaihe"},"geometry":{"type":"Point","coordinates":[120.8,47.45]}},{"type":"Feature","properties":{"name":"Asacha"},"geometry":{"type":"Point","coordinates":[157.827,52.355]}},{"type":"Feature","properties":{"name":"Ascension"},"geometry":{"type":"Point","coordinates":[-14.37,-7.95]}},{"type":"Feature","properties":{"name":"Askja"},"geometry":{"type":"Point","coordinates":[-16.783,65.033]}},{"type":"Feature","properties":{"name":"Assab Volcanic Field"},"geometry":{"type":"Point","coordinates":[42.43,12.95]}},{"type":"Feature","properties":{"name":"Atacazo"},"geometry":{"type":"Point","coordinates":[-78.617,-0.353]}},{"type":"Feature","properties":{"name":"Atka"},"geometry":{"type":"Point","coordinates":[-174.139,52.331]}},{"type":"Feature","properties":{"name":"Atlin Volcanic Field"},"geometry":{"type":"Point","coordinates":[-133.32,59.68]}},{"type":"Feature","properties":{"name":"Auckland Volcanic Field"},"geometry":{"type":"Point","coordinates":[174.87,-36.9]}},{"type":"Feature","properties":{"name":"Augustine"},"geometry":{"type":"Point","coordinates":[-153.43,59.363]}},{"type":"Feature","properties":{"name":"Avachinsky"},"geometry":{"type":"Point","coordinates":[158.836,53.256]}},{"type":"Feature","properties":{"name":"Axial Seamount"},"geometry":{"type":"Point","coordinates":[-130,45.95]}},{"type":"Feature","properties":{"name":"Azas Plateau"},"geometry":{"type":"Point","coordinates":[98.303,52.433]}},{"type":"Feature","properties":{"name":"Babuyan Claro"},"geometry":{"type":"Point","coordinates":[121.94,19.523]}},{"type":"Feature","properties":{"name":"Bachelor"},"geometry":{"type":"Point","coordinates":[-121.688,43.979]}},{"type":"Feature","properties":{"name":"Bagana"},"geometry":{"type":"Point","coordinates":[155.196,-6.137]}},{"type":"Feature","properties":{"name":"Bakening"},"geometry":{"type":"Point","coordinates":[158.07,53.905]}},{"type":"Feature","properties":{"name":"Baker"},"geometry":{"type":"Point","coordinates":[-121.813,48.777]}},{"type":"Feature","properties":{"name":"Baluan"},"geometry":{"type":"Point","coordinates":[147.28,-2.57]}},{"type":"Feature","properties":{"name":"Balut"},"geometry":{"type":"Point","coordinates":[125.375,5.4]}},{"type":"Feature","properties":{"name":"Banahaw"},"geometry":{"type":"Point","coordinates":[121.48,14.07]}},{"type":"Feature","properties":{"name":"Banda Api"},"geometry":{"type":"Point","coordinates":[129.881,-4.523]}},{"type":"Feature","properties":{"name":"Barcena"},"geometry":{"type":"Point","coordinates":[-110.82,19.3]}},{"type":"Feature","properties":{"name":"Bardarbunga"},"geometry":{"type":"Point","coordinates":[-17.516,64.633]}},{"type":"Feature","properties":{"name":"Barkhatnaya Sopka"},"geometry":{"type":"Point","coordinates":[158.24,52.802]}},{"type":"Feature","properties":{"name":"Barva"},"geometry":{"type":"Point","coordinates":[-84.1,10.135]}},{"type":"Feature","properties":{"name":"Bas Dong Nai"},"geometry":{"type":"Point","coordinates":[107.2,10.8]}},{"type":"Feature","properties":{"name":"Batur"},"geometry":{"type":"Point","coordinates":[115.375,-8.242]}},{"type":"Feature","properties":{"name":"Bayuda Volcanic Field"},"geometry":{"type":"Point","coordinates":[32.75,18.33]}},{"type":"Feature","properties":{"name":"Belknap"},"geometry":{"type":"Point","coordinates":[-121.841,44.285]}},{"type":"Feature","properties":{"name":"Bely"},"geometry":{"type":"Point","coordinates":[160.53,57.88]}},{"type":"Feature","properties":{"name":"Berlin"},"geometry":{"type":"Point","coordinates":[-136,-76.05]}},{"type":"Feature","properties":{"name":"Berutarubesan [Berutarube]"},"geometry":{"type":"Point","coordinates":[146.932,44.462]}},{"type":"Feature","properties":{"name":"Bezymianny"},"geometry":{"type":"Point","coordinates":[160.595,55.972]}},{"type":"Feature","properties":{"name":"Bibinoi"},"geometry":{"type":"Point","coordinates":[127.725,-0.761]}},{"type":"Feature","properties":{"name":"Biliran"},"geometry":{"type":"Point","coordinates":[124.535,11.523]}},{"type":"Feature","properties":{"name":"Billy Mitchell"},"geometry":{"type":"Point","coordinates":[155.225,-6.092]}},{"type":"Feature","properties":{"name":"Bishoftu Volcanic Field"},"geometry":{"type":"Point","coordinates":[38.98,8.78]}},{"type":"Feature","properties":{"name":"Black Butte Crater Lava Field"},"geometry":{"type":"Point","coordinates":[-114.352,43.183]}},{"type":"Feature","properties":{"name":"Black Rock Desert"},"geometry":{"type":"Point","coordinates":[-112.5,38.97]}},{"type":"Feature","properties":{"name":"Bogoslof"},"geometry":{"type":"Point","coordinates":[-168.03,53.93]}},{"type":"Feature","properties":{"name":"Bolshe-Bannaya"},"geometry":{"type":"Point","coordinates":[157.78,52.9]}},{"type":"Feature","properties":{"name":"Bolshoi Payalpan"},"geometry":{"type":"Point","coordinates":[157.78,55.88]}},{"type":"Feature","properties":{"name":"Bolshoi Semiachik"},"geometry":{"type":"Point","coordinates":[160.02,54.32]}},{"type":"Feature","properties":{"name":"Bolshoi-Kekuknaysky"},"geometry":{"type":"Point","coordinates":[157.917,56.483]}},{"type":"Feature","properties":{"name":"Bora-Bericcio"},"geometry":{"type":"Point","coordinates":[39.05,8.221]}},{"type":"Feature","properties":{"name":"Borawli"},"geometry":{"type":"Point","coordinates":[40.987,13.304]}},{"type":"Feature","properties":{"name":"Boset-Bericha"},"geometry":{"type":"Point","coordinates":[39.475,8.558]}},{"type":"Feature","properties":{"name":"Bouvet"},"geometry":{"type":"Point","coordinates":[3.351,-54.408]}},{"type":"Feature","properties":{"name":"Brennisteinsfjoll"},"geometry":{"type":"Point","coordinates":[-21.783,63.933]}},{"type":"Feature","properties":{"name":"Bridge River Cones"},"geometry":{"type":"Point","coordinates":[-123.4,50.8]}},{"type":"Feature","properties":{"name":"Bristol Island"},"geometry":{"type":"Point","coordinates":[-26.533,-59.017]}},{"type":"Feature","properties":{"name":"Buckle Island"},"geometry":{"type":"Point","coordinates":[163.25,-66.78]}},{"type":"Feature","properties":{"name":"Buldir"},"geometry":{"type":"Point","coordinates":[175.911,52.35]}},{"type":"Feature","properties":{"name":"Bulusan"},"geometry":{"type":"Point","coordinates":[124.056,12.769]}},{"type":"Feature","properties":{"name":"Bunyaruguru"},"geometry":{"type":"Point","coordinates":[30.08,-0.2]}},{"type":"Feature","properties":{"name":"Butajiri-Silti Field"},"geometry":{"type":"Point","coordinates":[38.35,8.05]}},{"type":"Feature","properties":{"name":"Buyan-Bratan"},"geometry":{"type":"Point","coordinates":[115.133,-8.283]}},{"type":"Feature","properties":{"name":"Cabalían"},"geometry":{"type":"Point","coordinates":[125.218,10.285]}},{"type":"Feature","properties":{"name":"Caburgua-Huelemolle"},"geometry":{"type":"Point","coordinates":[-71.75,-39.25]}},{"type":"Feature","properties":{"name":"Cagua"},"geometry":{"type":"Point","coordinates":[122.123,18.222]}},{"type":"Feature","properties":{"name":"Calabozos"},"geometry":{"type":"Point","coordinates":[-70.496,-35.558]}},{"type":"Feature","properties":{"name":"Calatrava Volcanic Field"},"geometry":{"type":"Point","coordinates":[-4.02,38.87]}},{"type":"Feature","properties":{"name":"Calbuco"},"geometry":{"type":"Point","coordinates":[-72.618,-41.33]}},{"type":"Feature","properties":{"name":"Callaqui"},"geometry":{"type":"Point","coordinates":[-71.45,-37.92]}},{"type":"Feature","properties":{"name":"Cameroon"},"geometry":{"type":"Point","coordinates":[9.17,4.203]}},{"type":"Feature","properties":{"name":"Camiguin"},"geometry":{"type":"Point","coordinates":[124.673,9.203]}},{"type":"Feature","properties":{"name":"Camiguin de Babuyanes"},"geometry":{"type":"Point","coordinates":[121.86,18.83]}},{"type":"Feature","properties":{"name":"Campi Flegrei"},"geometry":{"type":"Point","coordinates":[14.139,40.827]}},{"type":"Feature","properties":{"name":"Campi Flegrei del Mar di Sicilia"},"geometry":{"type":"Point","coordinates":[12.7,37.1]}},{"type":"Feature","properties":{"name":"Candlemas Island"},"geometry":{"type":"Point","coordinates":[-26.67,-57.08]}},{"type":"Feature","properties":{"name":"Carran-Los Venados"},"geometry":{"type":"Point","coordinates":[-72.07,-40.35]}},{"type":"Feature","properties":{"name":"Carrizozo"},"geometry":{"type":"Point","coordinates":[-105.93,33.78]}},{"type":"Feature","properties":{"name":"Cayambe"},"geometry":{"type":"Point","coordinates":[-77.986,0.029]}},{"type":"Feature","properties":{"name":"Cayley Volcanic Field"},"geometry":{"type":"Point","coordinates":[-123.28,50.12]}},{"type":"Feature","properties":{"name":"Cayutue-La Vigueria"},"geometry":{"type":"Point","coordinates":[-72.27,-41.25]}},{"type":"Feature","properties":{"name":"Ceboruco"},"geometry":{"type":"Point","coordinates":[-104.508,21.125]}},{"type":"Feature","properties":{"name":"Central Island"},"geometry":{"type":"Point","coordinates":[36.04,3.496]}},{"type":"Feature","properties":{"name":"Cereme"},"geometry":{"type":"Point","coordinates":[108.408,-6.895]}},{"type":"Feature","properties":{"name":"Chacana"},"geometry":{"type":"Point","coordinates":[-78.25,-0.375]}},{"type":"Feature","properties":{"name":"Chachadake [Tiatia]"},"geometry":{"type":"Point","coordinates":[146.252,44.353]}},{"type":"Feature","properties":{"name":"Chachimbiro"},"geometry":{"type":"Point","coordinates":[-78.287,0.468]}},{"type":"Feature","properties":{"name":"Chaine des Puys"},"geometry":{"type":"Point","coordinates":[2.97,45.775]}},{"type":"Feature","properties":{"name":"Changbaishan"},"geometry":{"type":"Point","coordinates":[128.08,41.98]}},{"type":"Feature","properties":{"name":"Cherpuk Group"},"geometry":{"type":"Point","coordinates":[157.47,55.55]}},{"type":"Feature","properties":{"name":"Chichinautzin"},"geometry":{"type":"Point","coordinates":[-99.13,19.08]}},{"type":"Feature","properties":{"name":"Chiginagak"},"geometry":{"type":"Point","coordinates":[-156.99,57.135]}},{"type":"Feature","properties":{"name":"Chikurachki"},"geometry":{"type":"Point","coordinates":[155.461,50.324]}},{"type":"Feature","properties":{"name":"Chiles-Cerro Negro"},"geometry":{"type":"Point","coordinates":[-77.938,0.817]}},{"type":"Feature","properties":{"name":"Chinameca"},"geometry":{"type":"Point","coordinates":[-88.33,13.478]}},{"type":"Feature","properties":{"name":"Chingo"},"geometry":{"type":"Point","coordinates":[-89.73,14.12]}},{"type":"Feature","properties":{"name":"Chiquimula Volcanic Field"},"geometry":{"type":"Point","coordinates":[-89.55,14.83]}},{"type":"Feature","properties":{"name":"Chirippusan [Chirip]"},"geometry":{"type":"Point","coordinates":[147.92,45.338]}},{"type":"Feature","properties":{"name":"Chirpoi"},"geometry":{"type":"Point","coordinates":[150.871,46.532]}},{"type":"Feature","properties":{"name":"Ch'uga-ryong"},"geometry":{"type":"Point","coordinates":[127.33,38.33]}},{"type":"Feature","properties":{"name":"Chyulu Hills"},"geometry":{"type":"Point","coordinates":[37.88,-2.68]}},{"type":"Feature","properties":{"name":"Cinnamon Butte"},"geometry":{"type":"Point","coordinates":[-122.108,43.241]}},{"type":"Feature","properties":{"name":"Clear Lake"},"geometry":{"type":"Point","coordinates":[-122.77,38.97]}},{"type":"Feature","properties":{"name":"Cleft Segment"},"geometry":{"type":"Point","coordinates":[-130.3,44.83]}},{"type":"Feature","properties":{"name":"Coatepeque Caldera"},"geometry":{"type":"Point","coordinates":[-89.55,13.87]}},{"type":"Feature","properties":{"name":"CoAxial Segment"},"geometry":{"type":"Point","coordinates":[-129.58,46.52]}},{"type":"Feature","properties":{"name":"Cofre de Perote"},"geometry":{"type":"Point","coordinates":[-97.15,19.492]}},{"type":"Feature","properties":{"name":"Colima"},"geometry":{"type":"Point","coordinates":[-103.62,19.514]}},{"type":"Feature","properties":{"name":"Colli Albani"},"geometry":{"type":"Point","coordinates":[12.7,41.73]}},{"type":"Feature","properties":{"name":"Comondu-La Purisima"},"geometry":{"type":"Point","coordinates":[-111.92,26]}},{"type":"Feature","properties":{"name":"Concepcion"},"geometry":{"type":"Point","coordinates":[-85.622,11.538]}},{"type":"Feature","properties":{"name":"Copahue"},"geometry":{"type":"Point","coordinates":[-71.183,-37.856]}},{"type":"Feature","properties":{"name":"Corbetti Caldera"},"geometry":{"type":"Point","coordinates":[38.39,7.193]}},{"type":"Feature","properties":{"name":"Corvo"},"geometry":{"type":"Point","coordinates":[-31.111,39.699]}},{"type":"Feature","properties":{"name":"Cosiguina"},"geometry":{"type":"Point","coordinates":[-87.57,12.98]}},{"type":"Feature","properties":{"name":"Cotopaxi"},"geometry":{"type":"Point","coordinates":[-78.436,-0.677]}},{"type":"Feature","properties":{"name":"Crater Basalt Volcanic Field"},"geometry":{"type":"Point","coordinates":[-70.194,-42.018]}},{"type":"Feature","properties":{"name":"Crater Lake"},"geometry":{"type":"Point","coordinates":[-122.12,42.93]}},{"type":"Feature","properties":{"name":"Craters of the Moon"},"geometry":{"type":"Point","coordinates":[-113.5,43.42]}},{"type":"Feature","properties":{"name":"Cuernos de Negros"},"geometry":{"type":"Point","coordinates":[123.17,9.25]}},{"type":"Feature","properties":{"name":"Cuicocha"},"geometry":{"type":"Point","coordinates":[-78.364,0.308]}},{"type":"Feature","properties":{"name":"Cuilapa-Barbarena"},"geometry":{"type":"Point","coordinates":[-90.4,14.33]}},{"type":"Feature","properties":{"name":"Cumbal"},"geometry":{"type":"Point","coordinates":[-77.87,0.95]}},{"type":"Feature","properties":{"name":"Dabbahu"},"geometry":{"type":"Point","coordinates":[40.48,12.595]}},{"type":"Feature","properties":{"name":"Dabbayra"},"geometry":{"type":"Point","coordinates":[40.07,12.38]}},{"type":"Feature","properties":{"name":"Dakataua"},"geometry":{"type":"Point","coordinates":[150.094,-5.094]}},{"type":"Feature","properties":{"name":"Dama Ali"},"geometry":{"type":"Point","coordinates":[41.63,11.28]}},{"type":"Feature","properties":{"name":"Damavand"},"geometry":{"type":"Point","coordinates":[52.109,35.951]}},{"type":"Feature","properties":{"name":"Dariganga Volcanic Field"},"geometry":{"type":"Point","coordinates":[114.279,45.754]}},{"type":"Feature","properties":{"name":"Darwin"},"geometry":{"type":"Point","coordinates":[-91.28,-0.18]}},{"type":"Feature","properties":{"name":"Davis Lake"},"geometry":{"type":"Point","coordinates":[-121.82,43.57]}},{"type":"Feature","properties":{"name":"Dawson Strait Group"},"geometry":{"type":"Point","coordinates":[150.88,-9.62]}},{"type":"Feature","properties":{"name":"Deception Island"},"geometry":{"type":"Point","coordinates":[-60.652,-63.001]}},{"type":"Feature","properties":{"name":"Dempo"},"geometry":{"type":"Point","coordinates":[103.121,-4.016]}},{"type":"Feature","properties":{"name":"Descabezado Grande"},"geometry":{"type":"Point","coordinates":[-70.75,-35.58]}},{"type":"Feature","properties":{"name":"Devils Garden"},"geometry":{"type":"Point","coordinates":[-120.861,43.512]}},{"type":"Feature","properties":{"name":"Diamond Craters"},"geometry":{"type":"Point","coordinates":[-118.75,43.1]}},{"type":"Feature","properties":{"name":"Dieng Volcanic Complex"},"geometry":{"type":"Point","coordinates":[109.879,-7.2]}},{"type":"Feature","properties":{"name":"Diky Greben"},"geometry":{"type":"Point","coordinates":[156.978,51.452]}},{"type":"Feature","properties":{"name":"Domuyo"},"geometry":{"type":"Point","coordinates":[-70.432,-36.638]}},{"type":"Feature","properties":{"name":"Dubbi"},"geometry":{"type":"Point","coordinates":[41.809,13.579]}},{"type":"Feature","properties":{"name":"Dukono"},"geometry":{"type":"Point","coordinates":[127.894,1.693]}},{"type":"Feature","properties":{"name":"Durango Volcanic Field"},"geometry":{"type":"Point","coordinates":[-104.45,24.15]}},{"type":"Feature","properties":{"name":"Dzenzursky"},"geometry":{"type":"Point","coordinates":[158.922,53.637]}},{"type":"Feature","properties":{"name":"Easter Island"},"geometry":{"type":"Point","coordinates":[-109.38,-27.15]}},{"type":"Feature","properties":{"name":"Ebeko"},"geometry":{"type":"Point","coordinates":[156.014,50.686]}},{"type":"Feature","properties":{"name":"Ecuador"},"geometry":{"type":"Point","coordinates":[-91.546,-0.02]}},{"type":"Feature","properties":{"name":"Edgecumbe"},"geometry":{"type":"Point","coordinates":[-135.75,57.05]}},{"type":"Feature","properties":{"name":"Edziza"},"geometry":{"type":"Point","coordinates":[-130.63,57.72]}},{"type":"Feature","properties":{"name":"Elbrus"},"geometry":{"type":"Point","coordinates":[42.442,43.351]}},{"type":"Feature","properties":{"name":"Elovsky"},"geometry":{"type":"Point","coordinates":[160.53,57.55]}},{"type":"Feature","properties":{"name":"Emmons Lake"},"geometry":{"type":"Point","coordinates":[-162.073,55.341]}},{"type":"Feature","properties":{"name":"Emuruangogolak"},"geometry":{"type":"Point","coordinates":[36.33,1.5]}},{"type":"Feature","properties":{"name":"Endeavour Segment"},"geometry":{"type":"Point","coordinates":[-129.1,47.95]}},{"type":"Feature","properties":{"name":"Epi"},"geometry":{"type":"Point","coordinates":[168.37,-16.68]}},{"type":"Feature","properties":{"name":"Erciyes Dagi"},"geometry":{"type":"Point","coordinates":[35.447,38.531]}},{"type":"Feature","properties":{"name":"Erebus"},"geometry":{"type":"Point","coordinates":[167.17,-77.53]}},{"type":"Feature","properties":{"name":"Erta Ale"},"geometry":{"type":"Point","coordinates":[40.67,13.6]}},{"type":"Feature","properties":{"name":"Esjufjoll"},"geometry":{"type":"Point","coordinates":[-16.583,64.25]}},{"type":"Feature","properties":{"name":"Esteli"},"geometry":{"type":"Point","coordinates":[-86.4,13.17]}},{"type":"Feature","properties":{"name":"Etna"},"geometry":{"type":"Point","coordinates":[14.999,37.748]}},{"type":"Feature","properties":{"name":"Etorofu-Atosanupuri [Atosanupuri]"},"geometry":{"type":"Point","coordinates":[147.131,44.808]}},{"type":"Feature","properties":{"name":"Etorofu-Yakeyama [Grozny Group]"},"geometry":{"type":"Point","coordinates":[147.871,45.012]}},{"type":"Feature","properties":{"name":"Eyjafjallajokull"},"geometry":{"type":"Point","coordinates":[-19.633,63.633]}},{"type":"Feature","properties":{"name":"Fayal"},"geometry":{"type":"Point","coordinates":[-28.73,38.6]}},{"type":"Feature","properties":{"name":"Fentale"},"geometry":{"type":"Point","coordinates":[39.93,8.975]}},{"type":"Feature","properties":{"name":"Fisher"},"geometry":{"type":"Point","coordinates":[-164.43,54.65]}},{"type":"Feature","properties":{"name":"Flores"},"geometry":{"type":"Point","coordinates":[-89.992,14.308]}},{"type":"Feature","properties":{"name":"Flores"},"geometry":{"type":"Point","coordinates":[-31.216,39.462]}},{"type":"Feature","properties":{"name":"Fogo"},"geometry":{"type":"Point","coordinates":[-24.35,14.95]}},{"type":"Feature","properties":{"name":"Fort Portal"},"geometry":{"type":"Point","coordinates":[30.25,0.7]}},{"type":"Feature","properties":{"name":"Fort Selkirk"},"geometry":{"type":"Point","coordinates":[-137.38,62.93]}},{"type":"Feature","properties":{"name":"Fremrinamar"},"geometry":{"type":"Point","coordinates":[-16.666,65.416]}},{"type":"Feature","properties":{"name":"Frosty"},"geometry":{"type":"Point","coordinates":[-162.835,55.067]}},{"type":"Feature","properties":{"name":"Fuego"},"geometry":{"type":"Point","coordinates":[-90.88,14.473]}},{"type":"Feature","properties":{"name":"Fuerteventura"},"geometry":{"type":"Point","coordinates":[-14.02,28.358]}},{"type":"Feature","properties":{"name":"Furnas"},"geometry":{"type":"Point","coordinates":[-25.32,37.77]}},{"type":"Feature","properties":{"name":"Gabillema"},"geometry":{"type":"Point","coordinates":[41.27,11.08]}},{"type":"Feature","properties":{"name":"Gada Ale"},"geometry":{"type":"Point","coordinates":[40.408,13.975]}},{"type":"Feature","properties":{"name":"Galapagos Rift"},"geometry":{"type":"Point","coordinates":[-86.15,0.792]}},{"type":"Feature","properties":{"name":"Galeras"},"geometry":{"type":"Point","coordinates":[-77.37,1.22]}},{"type":"Feature","properties":{"name":"Gallego"},"geometry":{"type":"Point","coordinates":[159.73,-9.35]}},{"type":"Feature","properties":{"name":"Galunggung"},"geometry":{"type":"Point","coordinates":[108.058,-7.25]}},{"type":"Feature","properties":{"name":"Gamalama"},"geometry":{"type":"Point","coordinates":[127.33,0.8]}},{"type":"Feature","properties":{"name":"Gamchen"},"geometry":{"type":"Point","coordinates":[160.703,54.974]}},{"type":"Feature","properties":{"name":"Gamkonora"},"geometry":{"type":"Point","coordinates":[127.53,1.38]}},{"type":"Feature","properties":{"name":"Garibaldi"},"geometry":{"type":"Point","coordinates":[-123,49.85]}},{"type":"Feature","properties":{"name":"Garibaldi Lake"},"geometry":{"type":"Point","coordinates":[-123,49.933]}},{"type":"Feature","properties":{"name":"Garove"},"geometry":{"type":"Point","coordinates":[149.511,-4.687]}},{"type":"Feature","properties":{"name":"Garua Harbour"},"geometry":{"type":"Point","coordinates":[150.07,-5.3]}},{"type":"Feature","properties":{"name":"Gaua"},"geometry":{"type":"Point","coordinates":[167.5,-14.27]}},{"type":"Feature","properties":{"name":"Gedamsa"},"geometry":{"type":"Point","coordinates":[39.188,8.357]}},{"type":"Feature","properties":{"name":"Gede-Pangrango"},"geometry":{"type":"Point","coordinates":[106.965,-6.77]}},{"type":"Feature","properties":{"name":"Genovesa"},"geometry":{"type":"Point","coordinates":[-89.958,0.32]}},{"type":"Feature","properties":{"name":"Ghegham Volcanic Ridge"},"geometry":{"type":"Point","coordinates":[45,40.283]}},{"type":"Feature","properties":{"name":"Glacier Peak"},"geometry":{"type":"Point","coordinates":[-121.113,48.112]}},{"type":"Feature","properties":{"name":"Golden Trout Creek"},"geometry":{"type":"Point","coordinates":[-118.32,36.358]}},{"type":"Feature","properties":{"name":"Goodenough"},"geometry":{"type":"Point","coordinates":[150.35,-9.48]}},{"type":"Feature","properties":{"name":"Gorely"},"geometry":{"type":"Point","coordinates":[158.03,52.559]}},{"type":"Feature","properties":{"name":"Graciosa"},"geometry":{"type":"Point","coordinates":[-27.97,39.02]}},{"type":"Feature","properties":{"name":"Gran Canaria"},"geometry":{"type":"Point","coordinates":[-15.58,28]}},{"type":"Feature","properties":{"name":"Granada"},"geometry":{"type":"Point","coordinates":[-85.98,11.92]}},{"type":"Feature","properties":{"name":"Grimsnes"},"geometry":{"type":"Point","coordinates":[-20.883,64.05]}},{"type":"Feature","properties":{"name":"Grimsvotn"},"geometry":{"type":"Point","coordinates":[-17.316,64.416]}},{"type":"Feature","properties":{"name":"Guagua Pichincha"},"geometry":{"type":"Point","coordinates":[-78.598,-0.171]}},{"type":"Feature","properties":{"name":"Guazapa"},"geometry":{"type":"Point","coordinates":[-89.12,13.9]}},{"type":"Feature","properties":{"name":"Gufa"},"geometry":{"type":"Point","coordinates":[42.53,12.55]}},{"type":"Feature","properties":{"name":"Guntur"},"geometry":{"type":"Point","coordinates":[107.84,-7.143]}},{"type":"Feature","properties":{"name":"Hainan Volcanic Field"},"geometry":{"type":"Point","coordinates":[110.229,19.905]}},{"type":"Feature","properties":{"name":"Haleakala"},"geometry":{"type":"Point","coordinates":[-156.25,20.708]}},{"type":"Feature","properties":{"name":"Halla"},"geometry":{"type":"Point","coordinates":[126.53,33.361]}},{"type":"Feature","properties":{"name":"Hanish"},"geometry":{"type":"Point","coordinates":[42.73,13.72]}},{"type":"Feature","properties":{"name":"Hargy"},"geometry":{"type":"Point","coordinates":[151.1,-5.33]}},{"type":"Feature","properties":{"name":"Harrat Ash Shamah"},"geometry":{"type":"Point","coordinates":[37.583,32.333]}},{"type":"Feature","properties":{"name":"Hasan Dagi"},"geometry":{"type":"Point","coordinates":[34.17,38.13]}},{"type":"Feature","properties":{"name":"Haut Dong Nai"},"geometry":{"type":"Point","coordinates":[108.2,11.6]}},{"type":"Feature","properties":{"name":"Healy"},"geometry":{"type":"Point","coordinates":[178.973,-35.004]}},{"type":"Feature","properties":{"name":"Heard"},"geometry":{"type":"Point","coordinates":[73.513,-53.106]}},{"type":"Feature","properties":{"name":"Hekla"},"geometry":{"type":"Point","coordinates":[-19.666,63.983]}},{"type":"Feature","properties":{"name":"Helgrindur"},"geometry":{"type":"Point","coordinates":[-23.283,64.866]}},{"type":"Feature","properties":{"name":"Hell's Half Acre"},"geometry":{"type":"Point","coordinates":[-112.45,43.5]}},{"type":"Feature","properties":{"name":"Hengill"},"geometry":{"type":"Point","coordinates":[-21.416,64.083]}},{"type":"Feature","properties":{"name":"Hierro"},"geometry":{"type":"Point","coordinates":[-18.03,27.73]}},{"type":"Feature","properties":{"name":"Hodson"},"geometry":{"type":"Point","coordinates":[-27.176,-56.712]}},{"type":"Feature","properties":{"name":"Hofsjokull"},"geometry":{"type":"Point","coordinates":[-18.766,64.833]}},{"type":"Feature","properties":{"name":"Homa Mountain"},"geometry":{"type":"Point","coordinates":[34.5,-0.38]}},{"type":"Feature","properties":{"name":"Hood"},"geometry":{"type":"Point","coordinates":[-121.695,45.374]}},{"type":"Feature","properties":{"name":"Hoodoo Mountain"},"geometry":{"type":"Point","coordinates":[-131.28,56.78]}},{"type":"Feature","properties":{"name":"Hromundartindur"},"geometry":{"type":"Point","coordinates":[-21.333,64.083]}},{"type":"Feature","properties":{"name":"Hualalai"},"geometry":{"type":"Point","coordinates":[-155.87,19.692]}},{"type":"Feature","properties":{"name":"Huambo"},"geometry":{"type":"Point","coordinates":[-72.13,-15.83]}},{"type":"Feature","properties":{"name":"Huanquihue Group"},"geometry":{"type":"Point","coordinates":[-71.58,-39.887]}},{"type":"Feature","properties":{"name":"Huaynaputina"},"geometry":{"type":"Point","coordinates":[-70.85,-16.608]}},{"type":"Feature","properties":{"name":"Hudson Mountains"},"geometry":{"type":"Point","coordinates":[-99.42,-74.33]}},{"type":"Feature","properties":{"name":"Huequi"},"geometry":{"type":"Point","coordinates":[-72.578,-42.377]}},{"type":"Feature","properties":{"name":"Hulubelu"},"geometry":{"type":"Point","coordinates":[104.59,-5.334]}},{"type":"Feature","properties":{"name":"Hululais"},"geometry":{"type":"Point","coordinates":[102.239,-3.247]}},{"type":"Feature","properties":{"name":"Iamalele"},"geometry":{"type":"Point","coordinates":[150.53,-9.52]}},{"type":"Feature","properties":{"name":"Ibu"},"geometry":{"type":"Point","coordinates":[127.63,1.488]}},{"type":"Feature","properties":{"name":"Iettunup"},"geometry":{"type":"Point","coordinates":[161.08,58.4]}},{"type":"Feature","properties":{"name":"Igwisi Hills"},"geometry":{"type":"Point","coordinates":[31.933,-4.889]}},{"type":"Feature","properties":{"name":"Ijen"},"geometry":{"type":"Point","coordinates":[114.242,-8.058]}},{"type":"Feature","properties":{"name":"Iktunup"},"geometry":{"type":"Point","coordinates":[160.77,58.08]}},{"type":"Feature","properties":{"name":"Iliamna"},"geometry":{"type":"Point","coordinates":[-153.09,60.032]}},{"type":"Feature","properties":{"name":"Iliboleng"},"geometry":{"type":"Point","coordinates":[123.258,-8.342]}},{"type":"Feature","properties":{"name":"Ililabalekan"},"geometry":{"type":"Point","coordinates":[123.38,-8.55]}},{"type":"Feature","properties":{"name":"Ilimuda"},"geometry":{"type":"Point","coordinates":[122.761,-8.479]}},{"type":"Feature","properties":{"name":"Iliwerung"},"geometry":{"type":"Point","coordinates":[123.57,-8.53]}},{"type":"Feature","properties":{"name":"Illiniza"},"geometry":{"type":"Point","coordinates":[-78.714,-0.659]}},{"type":"Feature","properties":{"name":"Ilopango"},"geometry":{"type":"Point","coordinates":[-89.053,13.672]}},{"type":"Feature","properties":{"name":"Imbabura"},"geometry":{"type":"Point","coordinates":[-78.183,0.258]}},{"type":"Feature","properties":{"name":"Imuruk Lake"},"geometry":{"type":"Point","coordinates":[-163.45,65.517]}},{"type":"Feature","properties":{"name":"Indian Heaven"},"geometry":{"type":"Point","coordinates":[-121.82,45.93]}},{"type":"Feature","properties":{"name":"Infiernillo"},"geometry":{"type":"Point","coordinates":[-69.9,-35.123]}},{"type":"Feature","properties":{"name":"Inielika"},"geometry":{"type":"Point","coordinates":[120.98,-8.73]}},{"type":"Feature","properties":{"name":"Inierie"},"geometry":{"type":"Point","coordinates":[120.95,-8.875]}},{"type":"Feature","properties":{"name":"Ipala"},"geometry":{"type":"Point","coordinates":[-89.63,14.55]}},{"type":"Feature","properties":{"name":"Irazu"},"geometry":{"type":"Point","coordinates":[-83.852,9.979]}},{"type":"Feature","properties":{"name":"Isarog"},"geometry":{"type":"Point","coordinates":[123.38,13.658]}},{"type":"Feature","properties":{"name":"Ischia"},"geometry":{"type":"Point","coordinates":[13.897,40.73]}},{"type":"Feature","properties":{"name":"Iskut-Unuk River Cones"},"geometry":{"type":"Point","coordinates":[-130.55,56.58]}},{"type":"Feature","properties":{"name":"Itasy Volcanic Field"},"geometry":{"type":"Point","coordinates":[46.7,-19.033]}},{"type":"Feature","properties":{"name":"Ixtepeque"},"geometry":{"type":"Point","coordinates":[-89.68,14.42]}},{"type":"Feature","properties":{"name":"Iya"},"geometry":{"type":"Point","coordinates":[121.641,-8.891]}},{"type":"Feature","properties":{"name":"Iyang-Argapura"},"geometry":{"type":"Point","coordinates":[113.57,-7.97]}},{"type":"Feature","properties":{"name":"Iztaccihuatl"},"geometry":{"type":"Point","coordinates":[-98.642,19.179]}},{"type":"Feature","properties":{"name":"Jailolo"},"geometry":{"type":"Point","coordinates":[127.439,1.08]}},{"type":"Feature","properties":{"name":"James Ross Island"},"geometry":{"type":"Point","coordinates":[-57.75,-64.15]}},{"type":"Feature","properties":{"name":"Jan Mayen"},"geometry":{"type":"Point","coordinates":[-8.155,71.082]}},{"type":"Feature","properties":{"name":"Jefferson"},"geometry":{"type":"Point","coordinates":[-121.8,44.674]}},{"type":"Feature","properties":{"name":"Jingbo"},"geometry":{"type":"Point","coordinates":[128.83,44.08]}},{"type":"Feature","properties":{"name":"Jom-Bolok"},"geometry":{"type":"Point","coordinates":[99.021,52.713]}},{"type":"Feature","properties":{"name":"Jordan Craters"},"geometry":{"type":"Point","coordinates":[-117.46,43.147]}},{"type":"Feature","properties":{"name":"Kaba"},"geometry":{"type":"Point","coordinates":[102.615,-3.522]}},{"type":"Feature","properties":{"name":"Kaikohe-Bay of Islands"},"geometry":{"type":"Point","coordinates":[173.9,-35.3]}},{"type":"Feature","properties":{"name":"Kanaga"},"geometry":{"type":"Point","coordinates":[-177.168,51.923]}},{"type":"Feature","properties":{"name":"Kanlaon"},"geometry":{"type":"Point","coordinates":[123.132,10.412]}},{"type":"Feature","properties":{"name":"Karang"},"geometry":{"type":"Point","coordinates":[106.05,-6.268]}},{"type":"Feature","properties":{"name":"Karapinar Field"},"geometry":{"type":"Point","coordinates":[33.6,37.667]}},{"type":"Feature","properties":{"name":"Karisimbi"},"geometry":{"type":"Point","coordinates":[29.45,-1.506]}},{"type":"Feature","properties":{"name":"Karkar"},"geometry":{"type":"Point","coordinates":[145.964,-4.649]}},{"type":"Feature","properties":{"name":"Karthala"},"geometry":{"type":"Point","coordinates":[43.38,-11.75]}},{"type":"Feature","properties":{"name":"Karymsky"},"geometry":{"type":"Point","coordinates":[159.443,54.049]}},{"type":"Feature","properties":{"name":"Katla"},"geometry":{"type":"Point","coordinates":[-19.083,63.633]}},{"type":"Feature","properties":{"name":"Katmai"},"geometry":{"type":"Point","coordinates":[-154.963,58.28]}},{"type":"Feature","properties":{"name":"Katwe-Kikorongo"},"geometry":{"type":"Point","coordinates":[29.92,-0.08]}},{"type":"Feature","properties":{"name":"Kazbek"},"geometry":{"type":"Point","coordinates":[44.5,42.7]}},{"type":"Feature","properties":{"name":"Kebeney"},"geometry":{"type":"Point","coordinates":[159.93,57.1]}},{"type":"Feature","properties":{"name":"Kekurny"},"geometry":{"type":"Point","coordinates":[158.85,56.4]}},{"type":"Feature","properties":{"name":"Kelimutu"},"geometry":{"type":"Point","coordinates":[121.82,-8.77]}},{"type":"Feature","properties":{"name":"Kell"},"geometry":{"type":"Point","coordinates":[157.35,51.65]}},{"type":"Feature","properties":{"name":"Keluo Group"},"geometry":{"type":"Point","coordinates":[125.92,49.37]}},{"type":"Feature","properties":{"name":"Kelut"},"geometry":{"type":"Point","coordinates":[112.308,-7.93]}},{"type":"Feature","properties":{"name":"Kendang"},"geometry":{"type":"Point","coordinates":[107.709,-7.245]}},{"type":"Feature","properties":{"name":"Kerguelen Islands"},"geometry":{"type":"Point","coordinates":[69.5,-49.58]}},{"type":"Feature","properties":{"name":"Kerinci"},"geometry":{"type":"Point","coordinates":[101.264,-1.697]}},{"type":"Feature","properties":{"name":"Ketoi"},"geometry":{"type":"Point","coordinates":[152.475,47.35]}},{"type":"Feature","properties":{"name":"Khanuy Gol"},"geometry":{"type":"Point","coordinates":[102.75,48.67]}},{"type":"Feature","properties":{"name":"Kharimkotan"},"geometry":{"type":"Point","coordinates":[154.508,49.12]}},{"type":"Feature","properties":{"name":"Khodutka"},"geometry":{"type":"Point","coordinates":[157.711,52.062]}},{"type":"Feature","properties":{"name":"Kick 'em Jenny"},"geometry":{"type":"Point","coordinates":[-61.64,12.3]}},{"type":"Feature","properties":{"name":"Kikhpinych"},"geometry":{"type":"Point","coordinates":[160.251,54.489]}},{"type":"Feature","properties":{"name":"Kilauea"},"geometry":{"type":"Point","coordinates":[-155.287,19.421]}},{"type":"Feature","properties":{"name":"Klabat"},"geometry":{"type":"Point","coordinates":[125.031,1.454]}},{"type":"Feature","properties":{"name":"Klyuchevskoy"},"geometry":{"type":"Point","coordinates":[160.642,56.056]}},{"type":"Feature","properties":{"name":"Kolokol Group"},"geometry":{"type":"Point","coordinates":[150.083,46.042]}},{"type":"Feature","properties":{"name":"Kone"},"geometry":{"type":"Point","coordinates":[39.701,8.788]}},{"type":"Feature","properties":{"name":"Korath Range"},"geometry":{"type":"Point","coordinates":[35.88,5.1]}},{"type":"Feature","properties":{"name":"Korosi"},"geometry":{"type":"Point","coordinates":[36.12,0.77]}},{"type":"Feature","properties":{"name":"Korovin"},"geometry":{"type":"Point","coordinates":[-174.166,52.381]}},{"type":"Feature","properties":{"name":"Koshelev"},"geometry":{"type":"Point","coordinates":[156.753,51.356]}},{"type":"Feature","properties":{"name":"Kostakan"},"geometry":{"type":"Point","coordinates":[158.05,53.83]}},{"type":"Feature","properties":{"name":"Krafla"},"geometry":{"type":"Point","coordinates":[-16.728,65.715]}},{"type":"Feature","properties":{"name":"Krakatau"},"geometry":{"type":"Point","coordinates":[105.423,-6.102]}},{"type":"Feature","properties":{"name":"Krasheninnikov"},"geometry":{"type":"Point","coordinates":[160.27,54.596]}},{"type":"Feature","properties":{"name":"Krummel-Garbuna-Welcker"},"geometry":{"type":"Point","coordinates":[150.027,-5.416]}},{"type":"Feature","properties":{"name":"Krysuvik"},"geometry":{"type":"Point","coordinates":[-22.083,63.883]}},{"type":"Feature","properties":{"name":"Ksudach"},"geometry":{"type":"Point","coordinates":[157.572,51.844]}},{"type":"Feature","properties":{"name":"Kula"},"geometry":{"type":"Point","coordinates":[28.52,38.58]}},{"type":"Feature","properties":{"name":"Kunlun Volcanic Group"},"geometry":{"type":"Point","coordinates":[80.2,35.52]}},{"type":"Feature","properties":{"name":"Kurile Lake"},"geometry":{"type":"Point","coordinates":[157.12,51.45]}},{"type":"Feature","properties":{"name":"Kutum Volcanic Field"},"geometry":{"type":"Point","coordinates":[25.85,14.57]}},{"type":"Feature","properties":{"name":"Kuwae"},"geometry":{"type":"Point","coordinates":[168.536,-16.829]}},{"type":"Feature","properties":{"name":"Kverkfjoll"},"geometry":{"type":"Point","coordinates":[-16.647,64.653]}},{"type":"Feature","properties":{"name":"Kyejo"},"geometry":{"type":"Point","coordinates":[33.792,-9.229]}},{"type":"Feature","properties":{"name":"La Palma"},"geometry":{"type":"Point","coordinates":[-17.83,28.57]}},{"type":"Feature","properties":{"name":"Laguna Caldera"},"geometry":{"type":"Point","coordinates":[121.27,14.42]}},{"type":"Feature","properties":{"name":"Lamongan"},"geometry":{"type":"Point","coordinates":[113.341,-7.981]}},{"type":"Feature","properties":{"name":"Langila"},"geometry":{"type":"Point","coordinates":[148.42,-5.525]}},{"type":"Feature","properties":{"name":"Langjokull"},"geometry":{"type":"Point","coordinates":[-19.7,64.85]}},{"type":"Feature","properties":{"name":"Lanin"},"geometry":{"type":"Point","coordinates":[-71.502,-39.637]}},{"type":"Feature","properties":{"name":"Lanzarote"},"geometry":{"type":"Point","coordinates":[-13.63,29.03]}},{"type":"Feature","properties":{"name":"Lassen Volcanic Center"},"geometry":{"type":"Point","coordinates":[-121.508,40.492]}},{"type":"Feature","properties":{"name":"Lawu"},"geometry":{"type":"Point","coordinates":[111.192,-7.625]}},{"type":"Feature","properties":{"name":"Leonard Range"},"geometry":{"type":"Point","coordinates":[126.047,7.382]}},{"type":"Feature","properties":{"name":"Leroboleng"},"geometry":{"type":"Point","coordinates":[122.833,-8.365]}},{"type":"Feature","properties":{"name":"Leutongey"},"geometry":{"type":"Point","coordinates":[159.827,57.306]}},{"type":"Feature","properties":{"name":"Level Mountain"},"geometry":{"type":"Point","coordinates":[-131.35,58.42]}},{"type":"Feature","properties":{"name":"Lewotobi"},"geometry":{"type":"Point","coordinates":[122.775,-8.542]}},{"type":"Feature","properties":{"name":"Liamuiga"},"geometry":{"type":"Point","coordinates":[-62.8,17.37]}},{"type":"Feature","properties":{"name":"Licto"},"geometry":{"type":"Point","coordinates":[-78.613,-1.78]}},{"type":"Feature","properties":{"name":"Lihir"},"geometry":{"type":"Point","coordinates":[152.642,-3.125]}},{"type":"Feature","properties":{"name":"Lipari"},"geometry":{"type":"Point","coordinates":[14.933,38.49]}},{"type":"Feature","properties":{"name":"Ljosufjoll"},"geometry":{"type":"Point","coordinates":[-22.483,64.9]}},{"type":"Feature","properties":{"name":"Llaima"},"geometry":{"type":"Point","coordinates":[-71.729,-38.692]}},{"type":"Feature","properties":{"name":"Lokon-Empung"},"geometry":{"type":"Point","coordinates":[124.792,1.358]}},{"type":"Feature","properties":{"name":"Lolo"},"geometry":{"type":"Point","coordinates":[150.509,-5.466]}},{"type":"Feature","properties":{"name":"Lolobau"},"geometry":{"type":"Point","coordinates":[151.158,-4.92]}},{"type":"Feature","properties":{"name":"Loloru"},"geometry":{"type":"Point","coordinates":[155.62,-6.52]}},{"type":"Feature","properties":{"name":"Long Island"},"geometry":{"type":"Point","coordinates":[147.12,-5.358]}},{"type":"Feature","properties":{"name":"Longgang Group"},"geometry":{"type":"Point","coordinates":[126.5,42.33]}},{"type":"Feature","properties":{"name":"Lonquimay"},"geometry":{"type":"Point","coordinates":[-71.586,-38.379]}},{"type":"Feature","properties":{"name":"Lubukraya"},"geometry":{"type":"Point","coordinates":[99.209,1.478]}},{"type":"Feature","properties":{"name":"Ly Son Group"},"geometry":{"type":"Point","coordinates":[109.12,15.38]}},{"type":"Feature","properties":{"name":"Macauley"},"geometry":{"type":"Point","coordinates":[-178.475,-30.21]}},{"type":"Feature","properties":{"name":"Madeira"},"geometry":{"type":"Point","coordinates":[-16.97,32.73]}},{"type":"Feature","properties":{"name":"Mahagnao"},"geometry":{"type":"Point","coordinates":[124.888,10.882]}},{"type":"Feature","properties":{"name":"Mahawu"},"geometry":{"type":"Point","coordinates":[124.865,1.352]}},{"type":"Feature","properties":{"name":"Maipo"},"geometry":{"type":"Point","coordinates":[-69.832,-34.164]}},{"type":"Feature","properties":{"name":"Makushin"},"geometry":{"type":"Point","coordinates":[-166.923,53.891]}},{"type":"Feature","properties":{"name":"Maly Semyachik"},"geometry":{"type":"Point","coordinates":[159.674,54.135]}},{"type":"Feature","properties":{"name":"Mammoth Mountain"},"geometry":{"type":"Point","coordinates":[-119.032,37.631]}},{"type":"Feature","properties":{"name":"Managlase Plateau"},"geometry":{"type":"Point","coordinates":[148.33,-9.08]}},{"type":"Feature","properties":{"name":"Manam"},"geometry":{"type":"Point","coordinates":[145.037,-4.08]}},{"type":"Feature","properties":{"name":"Manda Hararo"},"geometry":{"type":"Point","coordinates":[40.82,12.17]}},{"type":"Feature","properties":{"name":"Manda-Inakir"},"geometry":{"type":"Point","coordinates":[42.2,12.38]}},{"type":"Feature","properties":{"name":"Mandalagan"},"geometry":{"type":"Point","coordinates":[123.25,10.65]}},{"type":"Feature","properties":{"name":"Manzaz Volcanic Field"},"geometry":{"type":"Point","coordinates":[5.83,23.92]}},{"type":"Feature","properties":{"name":"Marapi"},"geometry":{"type":"Point","coordinates":[100.474,-0.38]}},{"type":"Feature","properties":{"name":"Marion Island"},"geometry":{"type":"Point","coordinates":[37.75,-46.9]}},{"type":"Feature","properties":{"name":"Mariveles"},"geometry":{"type":"Point","coordinates":[120.482,14.527]}},{"type":"Feature","properties":{"name":"Markagunt Plateau"},"geometry":{"type":"Point","coordinates":[-112.67,37.58]}},{"type":"Feature","properties":{"name":"Maroa"},"geometry":{"type":"Point","coordinates":[176.08,-38.42]}},{"type":"Feature","properties":{"name":"Marsabit"},"geometry":{"type":"Point","coordinates":[37.97,2.32]}},{"type":"Feature","properties":{"name":"Martin"},"geometry":{"type":"Point","coordinates":[-155.361,58.172]}},{"type":"Feature","properties":{"name":"Masaya"},"geometry":{"type":"Point","coordinates":[-86.165,11.985]}},{"type":"Feature","properties":{"name":"Mascota Volcanic Field"},"geometry":{"type":"Point","coordinates":[-104.83,20.62]}},{"type":"Feature","properties":{"name":"Matthew Island"},"geometry":{"type":"Point","coordinates":[171.32,-22.33]}},{"type":"Feature","properties":{"name":"Matutum"},"geometry":{"type":"Point","coordinates":[125.07,6.37]}},{"type":"Feature","properties":{"name":"Mauna Kea"},"geometry":{"type":"Point","coordinates":[-155.47,19.82]}},{"type":"Feature","properties":{"name":"Mauna Loa"},"geometry":{"type":"Point","coordinates":[-155.608,19.475]}},{"type":"Feature","properties":{"name":"Mayor Island"},"geometry":{"type":"Point","coordinates":[176.25,-37.28]}},{"type":"Feature","properties":{"name":"Meager"},"geometry":{"type":"Point","coordinates":[-123.5,50.63]}},{"type":"Feature","properties":{"name":"Medicine Lake"},"geometry":{"type":"Point","coordinates":[-121.554,41.611]}},{"type":"Feature","properties":{"name":"Mega Basalt Field"},"geometry":{"type":"Point","coordinates":[37.488,4.063]}},{"type":"Feature","properties":{"name":"Meidob Volcanic Field"},"geometry":{"type":"Point","coordinates":[26.47,15.32]}},{"type":"Feature","properties":{"name":"Melbourne"},"geometry":{"type":"Point","coordinates":[164.7,-74.35]}},{"type":"Feature","properties":{"name":"Merapi"},"geometry":{"type":"Point","coordinates":[110.446,-7.54]}},{"type":"Feature","properties":{"name":"Merbabu"},"geometry":{"type":"Point","coordinates":[110.44,-7.454]}},{"type":"Feature","properties":{"name":"Meru"},"geometry":{"type":"Point","coordinates":[36.75,-3.25]}},{"type":"Feature","properties":{"name":"Methana"},"geometry":{"type":"Point","coordinates":[23.336,37.615]}},{"type":"Feature","properties":{"name":"Michinmahuida"},"geometry":{"type":"Point","coordinates":[-72.445,-42.799]}},{"type":"Feature","properties":{"name":"Michoacan-Guanajuato"},"geometry":{"type":"Point","coordinates":[-101.75,19.85]}},{"type":"Feature","properties":{"name":"Milbanke Sound Group"},"geometry":{"type":"Point","coordinates":[-128.73,52.5]}},{"type":"Feature","properties":{"name":"Milna"},"geometry":{"type":"Point","coordinates":[151.786,46.815]}},{"type":"Feature","properties":{"name":"Milos"},"geometry":{"type":"Point","coordinates":[24.439,36.699]}},{"type":"Feature","properties":{"name":"Miravalles"},"geometry":{"type":"Point","coordinates":[-85.153,10.748]}},{"type":"Feature","properties":{"name":"Mocho-Choshuenco"},"geometry":{"type":"Point","coordinates":[-72.027,-39.927]}},{"type":"Feature","properties":{"name":"Moffett"},"geometry":{"type":"Point","coordinates":[-176.747,51.944]}},{"type":"Feature","properties":{"name":"Mojanda"},"geometry":{"type":"Point","coordinates":[-78.27,0.13]}},{"type":"Feature","properties":{"name":"Mombacho"},"geometry":{"type":"Point","coordinates":[-85.968,11.826]}},{"type":"Feature","properties":{"name":"Momotombo"},"geometry":{"type":"Point","coordinates":[-86.539,12.423]}},{"type":"Feature","properties":{"name":"Mono Lake Volcanic Field"},"geometry":{"type":"Point","coordinates":[-119.03,38]}},{"type":"Feature","properties":{"name":"Mono-Inyo Craters"},"geometry":{"type":"Point","coordinates":[-119.029,37.804]}},{"type":"Feature","properties":{"name":"Montagu Island"},"geometry":{"type":"Point","coordinates":[-26.374,-58.445]}},{"type":"Feature","properties":{"name":"Morning"},"geometry":{"type":"Point","coordinates":[163.53,-78.5]}},{"type":"Feature","properties":{"name":"Motlav"},"geometry":{"type":"Point","coordinates":[167.67,-13.67]}},{"type":"Feature","properties":{"name":"Moyorodake [Medvezhia]"},"geometry":{"type":"Point","coordinates":[148.838,45.389]}},{"type":"Feature","properties":{"name":"Moyuta"},"geometry":{"type":"Point","coordinates":[-90.1,14.03]}},{"type":"Feature","properties":{"name":"Muhavura"},"geometry":{"type":"Point","coordinates":[29.678,-1.383]}},{"type":"Feature","properties":{"name":"Mundua"},"geometry":{"type":"Point","coordinates":[149.339,-4.624]}},{"type":"Feature","properties":{"name":"Muria"},"geometry":{"type":"Point","coordinates":[110.88,-6.62]}},{"type":"Feature","properties":{"name":"Mutnovsky"},"geometry":{"type":"Point","coordinates":[158.196,52.449]}},{"type":"Feature","properties":{"name":"Nabukelevu"},"geometry":{"type":"Point","coordinates":[177.98,-19.12]}},{"type":"Feature","properties":{"name":"Namarunu"},"geometry":{"type":"Point","coordinates":[36.43,1.98]}},{"type":"Feature","properties":{"name":"Naolinco Volcanic Field"},"geometry":{"type":"Point","coordinates":[-96.75,19.67]}},{"type":"Feature","properties":{"name":"Natib"},"geometry":{"type":"Point","coordinates":[120.4,14.72]}},{"type":"Feature","properties":{"name":"Nejapa-Miraflores"},"geometry":{"type":"Point","coordinates":[-86.32,12.12]}},{"type":"Feature","properties":{"name":"Nemrut Dagi"},"geometry":{"type":"Point","coordinates":[42.229,38.654]}},{"type":"Feature","properties":{"name":"Nevis Peak"},"geometry":{"type":"Point","coordinates":[-62.58,17.15]}},{"type":"Feature","properties":{"name":"Newberry"},"geometry":{"type":"Point","coordinates":[-121.229,43.722]}},{"type":"Feature","properties":{"name":"Newer Volcanics Province"},"geometry":{"type":"Point","coordinates":[142.5,-37.77]}},{"type":"Feature","properties":{"name":"Ngozi"},"geometry":{"type":"Point","coordinates":[33.554,-8.989]}},{"type":"Feature","properties":{"name":"Nishihitokappuyama [Bogatyr Ridge]"},"geometry":{"type":"Point","coordinates":[147.342,44.833]}},{"type":"Feature","properties":{"name":"Nisyros"},"geometry":{"type":"Point","coordinates":[27.16,36.586]}},{"type":"Feature","properties":{"name":"Niuafo'ou"},"geometry":{"type":"Point","coordinates":[-175.63,-15.6]}},{"type":"Feature","properties":{"name":"North Vate"},"geometry":{"type":"Point","coordinates":[168.353,-17.47]}},{"type":"Feature","properties":{"name":"Northern EPR at 9.8°N"},"geometry":{"type":"Point","coordinates":[-104.3,9.83]}},{"type":"Feature","properties":{"name":"Nyambeni Hills"},"geometry":{"type":"Point","coordinates":[37.87,0.23]}},{"type":"Feature","properties":{"name":"Nyamuragira"},"geometry":{"type":"Point","coordinates":[29.2,-1.408]}},{"type":"Feature","properties":{"name":"Nyiragongo"},"geometry":{"type":"Point","coordinates":[29.25,-1.52]}},{"type":"Feature","properties":{"name":"Nylgimelkin"},"geometry":{"type":"Point","coordinates":[160.65,57.97]}},{"type":"Feature","properties":{"name":"O'a Caldera"},"geometry":{"type":"Point","coordinates":[38.58,7.47]}},{"type":"Feature","properties":{"name":"Ofu-Olosega"},"geometry":{"type":"Point","coordinates":[-169.618,-14.175]}},{"type":"Feature","properties":{"name":"Okataina"},"geometry":{"type":"Point","coordinates":[176.5,-38.12]}},{"type":"Feature","properties":{"name":"Okmok"},"geometry":{"type":"Point","coordinates":[-168.13,53.43]}},{"type":"Feature","properties":{"name":"Oku Volcanic Field"},"geometry":{"type":"Point","coordinates":[10.5,6.25]}},{"type":"Feature","properties":{"name":"Ol Kokwe"},"geometry":{"type":"Point","coordinates":[36.075,0.62]}},{"type":"Feature","properties":{"name":"Olkaria"},"geometry":{"type":"Point","coordinates":[36.292,-0.904]}},{"type":"Feature","properties":{"name":"Olkoviy Volcanic Group"},"geometry":{"type":"Point","coordinates":[157.53,52.02]}},{"type":"Feature","properties":{"name":"Olot Volcanic Field"},"geometry":{"type":"Point","coordinates":[2.53,42.17]}},{"type":"Feature","properties":{"name":"Opala"},"geometry":{"type":"Point","coordinates":[157.339,52.543]}},{"type":"Feature","properties":{"name":"Oraefajokull"},"geometry":{"type":"Point","coordinates":[-16.633,64.05]}},{"type":"Feature","properties":{"name":"Orosi"},"geometry":{"type":"Point","coordinates":[-85.473,10.98]}},{"type":"Feature","properties":{"name":"Osorno"},"geometry":{"type":"Point","coordinates":[-72.496,-41.105]}},{"type":"Feature","properties":{"name":"Ostanets"},"geometry":{"type":"Point","coordinates":[157.322,52.146]}},{"type":"Feature","properties":{"name":"Otdelniy"},"geometry":{"type":"Point","coordinates":[157.435,52.221]}},{"type":"Feature","properties":{"name":"Pacaya"},"geometry":{"type":"Point","coordinates":[-90.601,14.382]}},{"type":"Feature","properties":{"name":"Paka"},"geometry":{"type":"Point","coordinates":[36.18,0.92]}},{"type":"Feature","properties":{"name":"Pali-Aike Volcanic Field"},"geometry":{"type":"Point","coordinates":[-69.698,-52.082]}},{"type":"Feature","properties":{"name":"Palomo"},"geometry":{"type":"Point","coordinates":[-70.295,-34.608]}},{"type":"Feature","properties":{"name":"Paluweh"},"geometry":{"type":"Point","coordinates":[121.708,-8.32]}},{"type":"Feature","properties":{"name":"Panarea"},"geometry":{"type":"Point","coordinates":[15.064,38.638]}},{"type":"Feature","properties":{"name":"Pantelleria"},"geometry":{"type":"Point","coordinates":[12.02,36.77]}},{"type":"Feature","properties":{"name":"Papandayan"},"geometry":{"type":"Point","coordinates":[107.73,-7.32]}},{"type":"Feature","properties":{"name":"Papayo"},"geometry":{"type":"Point","coordinates":[-98.7,19.308]}},{"type":"Feature","properties":{"name":"Patuha"},"geometry":{"type":"Point","coordinates":[107.4,-7.162]}},{"type":"Feature","properties":{"name":"Pavlof"},"geometry":{"type":"Point","coordinates":[-161.894,55.417]}},{"type":"Feature","properties":{"name":"Payun Matru"},"geometry":{"type":"Point","coordinates":[-69.241,-36.422]}},{"type":"Feature","properties":{"name":"Pelee"},"geometry":{"type":"Point","coordinates":[-61.165,14.809]}},{"type":"Feature","properties":{"name":"Penanggungan"},"geometry":{"type":"Point","coordinates":[112.62,-7.616]}},{"type":"Feature","properties":{"name":"Penguin Island"},"geometry":{"type":"Point","coordinates":[-57.93,-62.1]}},{"type":"Feature","properties":{"name":"Perbakti-Gagak"},"geometry":{"type":"Point","coordinates":[106.7,-6.75]}},{"type":"Feature","properties":{"name":"Peuet Sague"},"geometry":{"type":"Point","coordinates":[96.289,4.903]}},{"type":"Feature","properties":{"name":"Pico"},"geometry":{"type":"Point","coordinates":[-28.4,38.47]}},{"type":"Feature","properties":{"name":"Picos Volcanic System"},"geometry":{"type":"Point","coordinates":[-25.67,37.78]}},{"type":"Feature","properties":{"name":"Pinacate"},"geometry":{"type":"Point","coordinates":[-113.498,31.772]}},{"type":"Feature","properties":{"name":"Pinatubo"},"geometry":{"type":"Point","coordinates":[120.35,15.13]}},{"type":"Feature","properties":{"name":"Planchon-Peteroa"},"geometry":{"type":"Point","coordinates":[-70.568,-35.223]}},{"type":"Feature","properties":{"name":"Platanar"},"geometry":{"type":"Point","coordinates":[-84.366,10.3]}},{"type":"Feature","properties":{"name":"Poas"},"geometry":{"type":"Point","coordinates":[-84.233,10.2]}},{"type":"Feature","properties":{"name":"Pocdol Mountains"},"geometry":{"type":"Point","coordinates":[123.958,13.05]}},{"type":"Feature","properties":{"name":"Pogranychny"},"geometry":{"type":"Point","coordinates":[159.8,56.85]}},{"type":"Feature","properties":{"name":"Popa"},"geometry":{"type":"Point","coordinates":[95.25,20.92]}},{"type":"Feature","properties":{"name":"Popocatepetl"},"geometry":{"type":"Point","coordinates":[-98.622,19.023]}},{"type":"Feature","properties":{"name":"Porak"},"geometry":{"type":"Point","coordinates":[45.74,40.028]}},{"type":"Feature","properties":{"name":"Prestahnukur"},"geometry":{"type":"Point","coordinates":[-20.666,64.583]}},{"type":"Feature","properties":{"name":"Prince Edward Island"},"geometry":{"type":"Point","coordinates":[37.95,-46.63]}},{"type":"Feature","properties":{"name":"Protector Seamounts"},"geometry":{"type":"Point","coordinates":[-28.167,-55.912]}},{"type":"Feature","properties":{"name":"Pululahua"},"geometry":{"type":"Point","coordinates":[-78.463,0.038]}},{"type":"Feature","properties":{"name":"Puntiagudo-Cordon Cenizos"},"geometry":{"type":"Point","coordinates":[-72.264,-40.969]}},{"type":"Feature","properties":{"name":"Purace"},"geometry":{"type":"Point","coordinates":[-76.4,2.32]}},{"type":"Feature","properties":{"name":"Puyehue-Cordon Caulle"},"geometry":{"type":"Point","coordinates":[-72.117,-40.59]}},{"type":"Feature","properties":{"name":"Qualibou"},"geometry":{"type":"Point","coordinates":[-61.05,13.83]}},{"type":"Feature","properties":{"name":"Quetrupillan"},"geometry":{"type":"Point","coordinates":[-71.722,-39.496]}},{"type":"Feature","properties":{"name":"Quimsachata"},"geometry":{"type":"Point","coordinates":[-71.351,-14.176]}},{"type":"Feature","properties":{"name":"Rabaul"},"geometry":{"type":"Point","coordinates":[152.203,-4.271]}},{"type":"Feature","properties":{"name":"Rainier"},"geometry":{"type":"Point","coordinates":[-121.76,46.853]}},{"type":"Feature","properties":{"name":"Ranakah"},"geometry":{"type":"Point","coordinates":[120.52,-8.62]}},{"type":"Feature","properties":{"name":"Ranau"},"geometry":{"type":"Point","coordinates":[103.925,-4.871]}},{"type":"Feature","properties":{"name":"Raoul Island"},"geometry":{"type":"Point","coordinates":[-177.92,-29.27]}},{"type":"Feature","properties":{"name":"Rasshua"},"geometry":{"type":"Point","coordinates":[153.02,47.77]}},{"type":"Feature","properties":{"name":"Raung"},"geometry":{"type":"Point","coordinates":[114.056,-8.119]}},{"type":"Feature","properties":{"name":"Raususan [Mendeleev]"},"geometry":{"type":"Point","coordinates":[145.733,43.979]}},{"type":"Feature","properties":{"name":"Recheschnoi"},"geometry":{"type":"Point","coordinates":[-168.539,53.157]}},{"type":"Feature","properties":{"name":"Reclus"},"geometry":{"type":"Point","coordinates":[-73.585,-50.964]}},{"type":"Feature","properties":{"name":"Red Hill"},"geometry":{"type":"Point","coordinates":[-108.83,34.25]}},{"type":"Feature","properties":{"name":"Reporoa"},"geometry":{"type":"Point","coordinates":[176.33,-38.42]}},{"type":"Feature","properties":{"name":"Reventador"},"geometry":{"type":"Point","coordinates":[-77.656,-0.077]}},{"type":"Feature","properties":{"name":"Reykjanes"},"geometry":{"type":"Point","coordinates":[-22.566,63.85]}},{"type":"Feature","properties":{"name":"Rincon de la Vieja"},"geometry":{"type":"Point","coordinates":[-85.324,10.83]}},{"type":"Feature","properties":{"name":"Rinjani"},"geometry":{"type":"Point","coordinates":[116.47,-8.42]}},{"type":"Feature","properties":{"name":"Rota"},"geometry":{"type":"Point","coordinates":[-86.75,12.55]}},{"type":"Feature","properties":{"name":"Royal Society Range"},"geometry":{"type":"Point","coordinates":[163.33,-78.25]}},{"type":"Feature","properties":{"name":"Ruapehu"},"geometry":{"type":"Point","coordinates":[175.57,-39.28]}},{"type":"Feature","properties":{"name":"Rucharuyama [Golets-Tornyi Group]"},"geometry":{"type":"Point","coordinates":[148.35,45.25]}},{"type":"Feature","properties":{"name":"Rumble III"},"geometry":{"type":"Point","coordinates":[178.478,-35.745]}},{"type":"Feature","properties":{"name":"Rungwe"},"geometry":{"type":"Point","coordinates":[33.668,-9.135]}},{"type":"Feature","properties":{"name":"Ruruidake [Smirnov]"},"geometry":{"type":"Point","coordinates":[146.139,44.454]}},{"type":"Feature","properties":{"name":"Saba"},"geometry":{"type":"Point","coordinates":[-63.23,17.63]}},{"type":"Feature","properties":{"name":"Sabancaya"},"geometry":{"type":"Point","coordinates":[-71.857,-15.787]}},{"type":"Feature","properties":{"name":"Salak"},"geometry":{"type":"Point","coordinates":[106.73,-6.72]}},{"type":"Feature","properties":{"name":"Salton Buttes"},"geometry":{"type":"Point","coordinates":[-115.616,33.197]}},{"type":"Feature","properties":{"name":"Samsari Volcanic Center"},"geometry":{"type":"Point","coordinates":[43.7,41.542]}},{"type":"Feature","properties":{"name":"San Borja Volcanic Field"},"geometry":{"type":"Point","coordinates":[-113.75,28.5]}},{"type":"Feature","properties":{"name":"San Cristobal"},"geometry":{"type":"Point","coordinates":[-87.004,12.702]}},{"type":"Feature","properties":{"name":"San Cristobal"},"geometry":{"type":"Point","coordinates":[-89.5,-0.88]}},{"type":"Feature","properties":{"name":"San Diego"},"geometry":{"type":"Point","coordinates":[-89.48,14.27]}},{"type":"Feature","properties":{"name":"San Francisco Volcanic Field"},"geometry":{"type":"Point","coordinates":[-111.678,35.347]}},{"type":"Feature","properties":{"name":"San Jose"},"geometry":{"type":"Point","coordinates":[-69.895,-33.789]}},{"type":"Feature","properties":{"name":"San Martin"},"geometry":{"type":"Point","coordinates":[-95.2,18.57]}},{"type":"Feature","properties":{"name":"San Pablo Volcanic Field"},"geometry":{"type":"Point","coordinates":[121.3,14.12]}},{"type":"Feature","properties":{"name":"San Pedro-Pellado"},"geometry":{"type":"Point","coordinates":[-70.849,-35.989]}},{"type":"Feature","properties":{"name":"San Quintin Volcanic Field"},"geometry":{"type":"Point","coordinates":[-115.996,30.468]}},{"type":"Feature","properties":{"name":"San Salvador"},"geometry":{"type":"Point","coordinates":[-89.294,13.734]}},{"type":"Feature","properties":{"name":"San Vicente"},"geometry":{"type":"Point","coordinates":[-88.837,13.595]}},{"type":"Feature","properties":{"name":"Sand Mountain Field"},"geometry":{"type":"Point","coordinates":[-121.93,44.38]}},{"type":"Feature","properties":{"name":"Sangay"},"geometry":{"type":"Point","coordinates":[-78.341,-2.005]}},{"type":"Feature","properties":{"name":"Sangeang Api"},"geometry":{"type":"Point","coordinates":[119.07,-8.2]}},{"type":"Feature","properties":{"name":"Santa Ana"},"geometry":{"type":"Point","coordinates":[-89.63,13.853]}},{"type":"Feature","properties":{"name":"Santa Cruz"},"geometry":{"type":"Point","coordinates":[-90.33,-0.62]}},{"type":"Feature","properties":{"name":"Santa Isabel"},"geometry":{"type":"Point","coordinates":[-75.365,4.818]}},{"type":"Feature","properties":{"name":"Santa Maria"},"geometry":{"type":"Point","coordinates":[-91.552,14.757]}},{"type":"Feature","properties":{"name":"Santiago"},"geometry":{"type":"Point","coordinates":[-90.77,-0.22]}},{"type":"Feature","properties":{"name":"Santorini"},"geometry":{"type":"Point","coordinates":[25.396,36.404]}},{"type":"Feature","properties":{"name":"Sarik-Gajah"},"geometry":{"type":"Point","coordinates":[100.189,0.074]}},{"type":"Feature","properties":{"name":"Sarychev Peak"},"geometry":{"type":"Point","coordinates":[153.2,48.092]}},{"type":"Feature","properties":{"name":"Sashiusudake [Baransky]"},"geometry":{"type":"Point","coordinates":[148.019,45.1]}},{"type":"Feature","properties":{"name":"Saunders"},"geometry":{"type":"Point","coordinates":[-26.483,-57.8]}},{"type":"Feature","properties":{"name":"Savai'i"},"geometry":{"type":"Point","coordinates":[-172.525,-13.612]}},{"type":"Feature","properties":{"name":"Savo"},"geometry":{"type":"Point","coordinates":[159.82,-9.13]}},{"type":"Feature","properties":{"name":"Seal Nunataks Group"},"geometry":{"type":"Point","coordinates":[-60.05,-65.03]}},{"type":"Feature","properties":{"name":"Seguam"},"geometry":{"type":"Point","coordinates":[-172.51,52.315]}},{"type":"Feature","properties":{"name":"Sekincau Belirang"},"geometry":{"type":"Point","coordinates":[104.317,-5.107]}},{"type":"Feature","properties":{"name":"Semeru"},"geometry":{"type":"Point","coordinates":[112.922,-8.108]}},{"type":"Feature","properties":{"name":"Semisopochnoi"},"geometry":{"type":"Point","coordinates":[179.58,51.93]}},{"type":"Feature","properties":{"name":"Serdan-Oriental"},"geometry":{"type":"Point","coordinates":[-97.47,19.27]}},{"type":"Feature","properties":{"name":"Serua"},"geometry":{"type":"Point","coordinates":[130.017,-6.312]}},{"type":"Feature","properties":{"name":"Sete Cidades"},"geometry":{"type":"Point","coordinates":[-25.78,37.87]}},{"type":"Feature","properties":{"name":"Seulawah Agam"},"geometry":{"type":"Point","coordinates":[95.658,5.448]}},{"type":"Feature","properties":{"name":"Severny"},"geometry":{"type":"Point","coordinates":[160.87,58.28]}},{"type":"Feature","properties":{"name":"Shasta"},"geometry":{"type":"Point","coordinates":[-122.193,41.409]}},{"type":"Feature","properties":{"name":"Sheveluch"},"geometry":{"type":"Point","coordinates":[161.36,56.653]}},{"type":"Feature","properties":{"name":"Shishaldin"},"geometry":{"type":"Point","coordinates":[-163.97,54.756]}},{"type":"Feature","properties":{"name":"Sibualbuali"},"geometry":{"type":"Point","coordinates":[99.255,1.556]}},{"type":"Feature","properties":{"name":"Silali"},"geometry":{"type":"Point","coordinates":[36.23,1.15]}},{"type":"Feature","properties":{"name":"Silay"},"geometry":{"type":"Point","coordinates":[123.23,10.77]}},{"type":"Feature","properties":{"name":"Silverthrone"},"geometry":{"type":"Point","coordinates":[-126.3,51.43]}},{"type":"Feature","properties":{"name":"Simbo"},"geometry":{"type":"Point","coordinates":[156.52,-8.292]}},{"type":"Feature","properties":{"name":"Sinabung"},"geometry":{"type":"Point","coordinates":[98.392,3.17]}},{"type":"Feature","properties":{"name":"Singkut"},"geometry":{"type":"Point","coordinates":[98.501,3.248]}},{"type":"Feature","properties":{"name":"Siple"},"geometry":{"type":"Point","coordinates":[-126.67,-73.43]}},{"type":"Feature","properties":{"name":"Sirung"},"geometry":{"type":"Point","coordinates":[124.13,-8.508]}},{"type":"Feature","properties":{"name":"Slamet"},"geometry":{"type":"Point","coordinates":[109.208,-7.242]}},{"type":"Feature","properties":{"name":"Snezhniy"},"geometry":{"type":"Point","coordinates":[160.8,58.02]}},{"type":"Feature","properties":{"name":"Socorro"},"geometry":{"type":"Point","coordinates":[-110.95,18.78]}},{"type":"Feature","properties":{"name":"Soda Lakes"},"geometry":{"type":"Point","coordinates":[-118.87,39.53]}},{"type":"Feature","properties":{"name":"Sollipulli"},"geometry":{"type":"Point","coordinates":[-71.52,-38.97]}},{"type":"Feature","properties":{"name":"Soputan"},"geometry":{"type":"Point","coordinates":[124.737,1.112]}},{"type":"Feature","properties":{"name":"Sorikmarapi"},"geometry":{"type":"Point","coordinates":[99.539,0.686]}},{"type":"Feature","properties":{"name":"Soufriere Guadeloupe"},"geometry":{"type":"Point","coordinates":[-61.664,16.044]}},{"type":"Feature","properties":{"name":"Soufriere Hills"},"geometry":{"type":"Point","coordinates":[-62.18,16.72]}},{"type":"Feature","properties":{"name":"Soufriere St. Vincent"},"geometry":{"type":"Point","coordinates":[-61.18,13.33]}},{"type":"Feature","properties":{"name":"Southern Thule"},"geometry":{"type":"Point","coordinates":[-27.225,-59.442]}},{"type":"Feature","properties":{"name":"Spectrum Range"},"geometry":{"type":"Point","coordinates":[-130.68,57.43]}},{"type":"Feature","properties":{"name":"Spurr"},"geometry":{"type":"Point","coordinates":[-152.251,61.299]}},{"type":"Feature","properties":{"name":"St. Andrew Strait"},"geometry":{"type":"Point","coordinates":[147.35,-2.38]}},{"type":"Feature","properties":{"name":"St. Catherine"},"geometry":{"type":"Point","coordinates":[-61.67,12.15]}},{"type":"Feature","properties":{"name":"St. Helens"},"geometry":{"type":"Point","coordinates":[-122.18,46.2]}},{"type":"Feature","properties":{"name":"St. Michael"},"geometry":{"type":"Point","coordinates":[-162.12,63.45]}},{"type":"Feature","properties":{"name":"St. Paul Island"},"geometry":{"type":"Point","coordinates":[-170.3,57.18]}},{"type":"Feature","properties":{"name":"Stromboli"},"geometry":{"type":"Point","coordinates":[15.213,38.789]}},{"type":"Feature","properties":{"name":"Suchitan"},"geometry":{"type":"Point","coordinates":[-89.78,14.4]}},{"type":"Feature","properties":{"name":"Sulu Range"},"geometry":{"type":"Point","coordinates":[150.942,-5.5]}},{"type":"Feature","properties":{"name":"Sumaco"},"geometry":{"type":"Point","coordinates":[-77.626,-0.538]}},{"type":"Feature","properties":{"name":"Sumbing"},"geometry":{"type":"Point","coordinates":[101.728,-2.414]}},{"type":"Feature","properties":{"name":"Sumbing"},"geometry":{"type":"Point","coordinates":[110.07,-7.384]}},{"type":"Feature","properties":{"name":"Sundoro"},"geometry":{"type":"Point","coordinates":[109.992,-7.3]}},{"type":"Feature","properties":{"name":"Suretamatai"},"geometry":{"type":"Point","coordinates":[167.47,-13.8]}},{"type":"Feature","properties":{"name":"Suswa"},"geometry":{"type":"Point","coordinates":[36.357,-1.151]}},{"type":"Feature","properties":{"name":"Taal"},"geometry":{"type":"Point","coordinates":[120.993,14.002]}},{"type":"Feature","properties":{"name":"Taburete"},"geometry":{"type":"Point","coordinates":[-88.532,13.435]}},{"type":"Feature","properties":{"name":"Tacana"},"geometry":{"type":"Point","coordinates":[-92.109,15.132]}},{"type":"Feature","properties":{"name":"Tafu-Maka"},"geometry":{"type":"Point","coordinates":[-174.23,-15.37]}},{"type":"Feature","properties":{"name":"Tahual"},"geometry":{"type":"Point","coordinates":[-89.9,14.43]}},{"type":"Feature","properties":{"name":"Takahe"},"geometry":{"type":"Point","coordinates":[-112.08,-76.28]}},{"type":"Feature","properties":{"name":"Talagabodas"},"geometry":{"type":"Point","coordinates":[108.07,-7.208]}},{"type":"Feature","properties":{"name":"Talakmau"},"geometry":{"type":"Point","coordinates":[99.98,0.079]}},{"type":"Feature","properties":{"name":"Talang"},"geometry":{"type":"Point","coordinates":[100.681,-0.979]}},{"type":"Feature","properties":{"name":"Tambora"},"geometry":{"type":"Point","coordinates":[118,-8.25]}},{"type":"Feature","properties":{"name":"Tanaga"},"geometry":{"type":"Point","coordinates":[-178.146,51.885]}},{"type":"Feature","properties":{"name":"Tandikat-Singgalang"},"geometry":{"type":"Point","coordinates":[100.331,-0.39]}},{"type":"Feature","properties":{"name":"Tangkoko-Duasudara"},"geometry":{"type":"Point","coordinates":[125.185,1.518]}},{"type":"Feature","properties":{"name":"Tangkuban Parahu"},"geometry":{"type":"Point","coordinates":[107.6,-6.77]}},{"type":"Feature","properties":{"name":"Tao-Rusyr Caldera"},"geometry":{"type":"Point","coordinates":[154.7,49.35]}},{"type":"Feature","properties":{"name":"Tarakan"},"geometry":{"type":"Point","coordinates":[127.83,1.83]}},{"type":"Feature","properties":{"name":"Taranaki"},"geometry":{"type":"Point","coordinates":[174.07,-39.3]}},{"type":"Feature","properties":{"name":"Taryatu-Chulutu"},"geometry":{"type":"Point","coordinates":[99.95,48.133]}},{"type":"Feature","properties":{"name":"Ta'u"},"geometry":{"type":"Point","coordinates":[-169.454,-14.23]}},{"type":"Feature","properties":{"name":"Taupo"},"geometry":{"type":"Point","coordinates":[176,-38.82]}},{"type":"Feature","properties":{"name":"Taveuni"},"geometry":{"type":"Point","coordinates":[-179.97,-16.82]}},{"type":"Feature","properties":{"name":"Tecapa"},"geometry":{"type":"Point","coordinates":[-88.502,13.494]}},{"type":"Feature","properties":{"name":"Tecuamburro"},"geometry":{"type":"Point","coordinates":[-90.407,14.156]}},{"type":"Feature","properties":{"name":"Telica"},"geometry":{"type":"Point","coordinates":[-86.84,12.606]}},{"type":"Feature","properties":{"name":"Telomoyo"},"geometry":{"type":"Point","coordinates":[110.4,-7.362]}},{"type":"Feature","properties":{"name":"Tenduruk Dagi"},"geometry":{"type":"Point","coordinates":[43.874,39.356]}},{"type":"Feature","properties":{"name":"Tenerife"},"geometry":{"type":"Point","coordinates":[-16.641,28.271]}},{"type":"Feature","properties":{"name":"Tengchong"},"geometry":{"type":"Point","coordinates":[98.5,25.23]}},{"type":"Feature","properties":{"name":"Tengger Caldera"},"geometry":{"type":"Point","coordinates":[112.95,-7.942]}},{"type":"Feature","properties":{"name":"Tenorio"},"geometry":{"type":"Point","coordinates":[-85.015,10.673]}},{"type":"Feature","properties":{"name":"Tepi"},"geometry":{"type":"Point","coordinates":[35.43,7.42]}},{"type":"Feature","properties":{"name":"Terceira"},"geometry":{"type":"Point","coordinates":[-27.32,38.73]}},{"type":"Feature","properties":{"name":"Theistareykir"},"geometry":{"type":"Point","coordinates":[-17.166,65.833]}},{"type":"Feature","properties":{"name":"Three Sisters"},"geometry":{"type":"Point","coordinates":[-121.767,44.133]}},{"type":"Feature","properties":{"name":"Tidore"},"geometry":{"type":"Point","coordinates":[127.4,0.658]}},{"type":"Feature","properties":{"name":"Tinakula"},"geometry":{"type":"Point","coordinates":[165.804,-10.386]}},{"type":"Feature","properties":{"name":"Tindfjallajokull"},"geometry":{"type":"Point","coordinates":[-19.716,63.783]}},{"type":"Feature","properties":{"name":"Tinguiririca"},"geometry":{"type":"Point","coordinates":[-70.352,-34.814]}},{"type":"Feature","properties":{"name":"Titila"},"geometry":{"type":"Point","coordinates":[160.108,57.406]}},{"type":"Feature","properties":{"name":"Tjornes Fracture Zone"},"geometry":{"type":"Point","coordinates":[-17.118,66.309]}},{"type":"Feature","properties":{"name":"Tlevak Strait-Suemez Is."},"geometry":{"type":"Point","coordinates":[-133.3,55.25]}},{"type":"Feature","properties":{"name":"Toba"},"geometry":{"type":"Point","coordinates":[98.83,2.58]}},{"type":"Feature","properties":{"name":"Todoko-Ranu"},"geometry":{"type":"Point","coordinates":[127.47,1.25]}},{"type":"Feature","properties":{"name":"Todra Volcanic Field"},"geometry":{"type":"Point","coordinates":[8.5,17.68]}},{"type":"Feature","properties":{"name":"Tofua"},"geometry":{"type":"Point","coordinates":[-175.07,-19.75]}},{"type":"Feature","properties":{"name":"Tolbachik"},"geometry":{"type":"Point","coordinates":[160.326,55.832]}},{"type":"Feature","properties":{"name":"Tolhuaca"},"geometry":{"type":"Point","coordinates":[-71.645,-38.31]}},{"type":"Feature","properties":{"name":"Toliman"},"geometry":{"type":"Point","coordinates":[-91.189,14.612]}},{"type":"Feature","properties":{"name":"Tomariyama [Golovnin]"},"geometry":{"type":"Point","coordinates":[145.504,43.844]}},{"type":"Feature","properties":{"name":"Tombel Graben"},"geometry":{"type":"Point","coordinates":[9.717,4.758]}},{"type":"Feature","properties":{"name":"Tondano Caldera"},"geometry":{"type":"Point","coordinates":[124.83,1.23]}},{"type":"Feature","properties":{"name":"Toney Mountain"},"geometry":{"type":"Point","coordinates":[-115.83,-75.8]}},{"type":"Feature","properties":{"name":"Tongariro"},"geometry":{"type":"Point","coordinates":[175.632,-39.157]}},{"type":"Feature","properties":{"name":"Torfajokull"},"geometry":{"type":"Point","coordinates":[-19.122,63.892]}},{"type":"Feature","properties":{"name":"Traitor's Head"},"geometry":{"type":"Point","coordinates":[169.238,-18.754]}},{"type":"Feature","properties":{"name":"Tralihue"},"geometry":{"type":"Point","coordinates":[-70.898,-38.509]}},{"type":"Feature","properties":{"name":"Trident"},"geometry":{"type":"Point","coordinates":[-155.1,58.236]}},{"type":"Feature","properties":{"name":"Tristan da Cunha"},"geometry":{"type":"Point","coordinates":[-12.28,-37.092]}},{"type":"Feature","properties":{"name":"Trolon"},"geometry":{"type":"Point","coordinates":[-70.906,-37.738]}},{"type":"Feature","properties":{"name":"Tromen"},"geometry":{"type":"Point","coordinates":[-70.033,-37.144]}},{"type":"Feature","properties":{"name":"Tronador"},"geometry":{"type":"Point","coordinates":[-71.885,-41.157]}},{"type":"Feature","properties":{"name":"Tullu Moje"},"geometry":{"type":"Point","coordinates":[39.137,8.159]}},{"type":"Feature","properties":{"name":"Tungnafellsjokull"},"geometry":{"type":"Point","coordinates":[-17.916,64.75]}},{"type":"Feature","properties":{"name":"Tunkin Depression"},"geometry":{"type":"Point","coordinates":[102.5,51.5]}},{"type":"Feature","properties":{"name":"Tupungatito"},"geometry":{"type":"Point","coordinates":[-69.797,-33.425]}},{"type":"Feature","properties":{"name":"Turrialba"},"geometry":{"type":"Point","coordinates":[-83.767,10.025]}},{"type":"Feature","properties":{"name":"Tutuila"},"geometry":{"type":"Point","coordinates":[-170.7,-14.295]}},{"type":"Feature","properties":{"name":"Tutupaca"},"geometry":{"type":"Point","coordinates":[-70.372,-17.026]}},{"type":"Feature","properties":{"name":"Tuya Volcanic Field"},"geometry":{"type":"Point","coordinates":[-130.58,59.37]}},{"type":"Feature","properties":{"name":"Tuzovsky"},"geometry":{"type":"Point","coordinates":[159.967,57.32]}},{"type":"Feature","properties":{"name":"Ubehebe Craters"},"geometry":{"type":"Point","coordinates":[-117.45,37.02]}},{"type":"Feature","properties":{"name":"Udina"},"geometry":{"type":"Point","coordinates":[160.527,55.758]}},{"type":"Feature","properties":{"name":"Udokan Plateau"},"geometry":{"type":"Point","coordinates":[117.77,56.28]}},{"type":"Feature","properties":{"name":"Ugashik-Peulik"},"geometry":{"type":"Point","coordinates":[-156.368,57.751]}},{"type":"Feature","properties":{"name":"Uinkaret Field"},"geometry":{"type":"Point","coordinates":[-113.13,36.38]}},{"type":"Feature","properties":{"name":"Ukinrek Maars"},"geometry":{"type":"Point","coordinates":[-156.51,57.832]}},{"type":"Feature","properties":{"name":"Uksichan"},"geometry":{"type":"Point","coordinates":[158.38,56.08]}},{"type":"Feature","properties":{"name":"Ulreung"},"geometry":{"type":"Point","coordinates":[130.87,37.5]}},{"type":"Feature","properties":{"name":"Umboi"},"geometry":{"type":"Point","coordinates":[147.875,-5.589]}},{"type":"Feature","properties":{"name":"Ungaran"},"geometry":{"type":"Point","coordinates":[110.33,-7.18]}},{"type":"Feature","properties":{"name":"Upolu"},"geometry":{"type":"Point","coordinates":[-171.72,-13.935]}},{"type":"Feature","properties":{"name":"Uratman"},"geometry":{"type":"Point","coordinates":[152.25,47.12]}},{"type":"Feature","properties":{"name":"Ushkovsky"},"geometry":{"type":"Point","coordinates":[160.509,56.113]}},{"type":"Feature","properties":{"name":"Usulutan"},"geometry":{"type":"Point","coordinates":[-88.471,13.419]}},{"type":"Feature","properties":{"name":"Utila Island"},"geometry":{"type":"Point","coordinates":[-86.882,16.12]}},{"type":"Feature","properties":{"name":"Uzon"},"geometry":{"type":"Point","coordinates":[159.97,54.5]}},{"type":"Feature","properties":{"name":"Vailulu'u"},"geometry":{"type":"Point","coordinates":[-169.058,-14.215]}},{"type":"Feature","properties":{"name":"Vaiyots-Sar"},"geometry":{"type":"Point","coordinates":[45.497,39.797]}},{"type":"Feature","properties":{"name":"Vakinankaratra"},"geometry":{"type":"Point","coordinates":[46.942,-19.85]}},{"type":"Feature","properties":{"name":"Vernadskii Ridge"},"geometry":{"type":"Point","coordinates":[155.97,50.55]}},{"type":"Feature","properties":{"name":"Vestmannaeyjar"},"geometry":{"type":"Point","coordinates":[-20.266,63.416]}},{"type":"Feature","properties":{"name":"Vesuvius"},"geometry":{"type":"Point","coordinates":[14.426,40.821]}},{"type":"Feature","properties":{"name":"Victory"},"geometry":{"type":"Point","coordinates":[149.07,-9.2]}},{"type":"Feature","properties":{"name":"Villarrica"},"geometry":{"type":"Point","coordinates":[-71.93,-39.42]}},{"type":"Feature","properties":{"name":"Vilyuchik"},"geometry":{"type":"Point","coordinates":[158.28,52.7]}},{"type":"Feature","properties":{"name":"Visoke"},"geometry":{"type":"Point","coordinates":[29.485,-1.458]}},{"type":"Feature","properties":{"name":"Visokiy"},"geometry":{"type":"Point","coordinates":[157.93,52.43]}},{"type":"Feature","properties":{"name":"Vitim Volcanic Field"},"geometry":{"type":"Point","coordinates":[113.25,53.75]}},{"type":"Feature","properties":{"name":"Voyampolsky"},"geometry":{"type":"Point","coordinates":[160.631,58.374]}},{"type":"Feature","properties":{"name":"Vulcano"},"geometry":{"type":"Point","coordinates":[14.962,38.404]}},{"type":"Feature","properties":{"name":"Vulsini"},"geometry":{"type":"Point","coordinates":[11.93,42.6]}},{"type":"Feature","properties":{"name":"Vysoky"},"geometry":{"type":"Point","coordinates":[160.765,55.064]}},{"type":"Feature","properties":{"name":"Waesche"},"geometry":{"type":"Point","coordinates":[-126.88,-77.17]}},{"type":"Feature","properties":{"name":"Wallis Islands"},"geometry":{"type":"Point","coordinates":[-176.17,-13.3]}},{"type":"Feature","properties":{"name":"Wapi Lava Field"},"geometry":{"type":"Point","coordinates":[-113.22,42.88]}},{"type":"Feature","properties":{"name":"Wells Gray-Clearwater"},"geometry":{"type":"Point","coordinates":[-120.57,52.33]}},{"type":"Feature","properties":{"name":"West Crater"},"geometry":{"type":"Point","coordinates":[-122.08,45.88]}},{"type":"Feature","properties":{"name":"West Eifel Volcanic Field"},"geometry":{"type":"Point","coordinates":[6.85,50.17]}},{"type":"Feature","properties":{"name":"West Mata"},"geometry":{"type":"Point","coordinates":[-173.75,-15.1]}},{"type":"Feature","properties":{"name":"Westdahl"},"geometry":{"type":"Point","coordinates":[-164.65,54.516]}},{"type":"Feature","properties":{"name":"Whakaari/White Island"},"geometry":{"type":"Point","coordinates":[177.18,-37.52]}},{"type":"Feature","properties":{"name":"Whangarei"},"geometry":{"type":"Point","coordinates":[174.27,-35.75]}},{"type":"Feature","properties":{"name":"Wilis"},"geometry":{"type":"Point","coordinates":[111.758,-7.808]}},{"type":"Feature","properties":{"name":"Witori"},"geometry":{"type":"Point","coordinates":[150.516,-5.576]}},{"type":"Feature","properties":{"name":"Wrangell"},"geometry":{"type":"Point","coordinates":[-144.017,62.006]}},{"type":"Feature","properties":{"name":"Wudalianchi"},"geometry":{"type":"Point","coordinates":[126.12,48.72]}},{"type":"Feature","properties":{"name":"Yasur"},"geometry":{"type":"Point","coordinates":[169.447,-19.532]}},{"type":"Feature","properties":{"name":"Yavinsky"},"geometry":{"type":"Point","coordinates":[156.629,51.533]}},{"type":"Feature","properties":{"name":"Yellowstone"},"geometry":{"type":"Point","coordinates":[-110.67,44.43]}},{"type":"Feature","properties":{"name":"Yucamane"},"geometry":{"type":"Point","coordinates":[-70.196,-17.184]}},{"type":"Feature","properties":{"name":"Yunaska"},"geometry":{"type":"Point","coordinates":[-170.629,52.643]}},{"type":"Feature","properties":{"name":"Zaozerny"},"geometry":{"type":"Point","coordinates":[159.95,56.88]}},{"type":"Feature","properties":{"name":"Zapatera"},"geometry":{"type":"Point","coordinates":[-85.82,11.73]}},{"type":"Feature","properties":{"name":"Zavaritsky"},"geometry":{"type":"Point","coordinates":[158.385,53.905]}},{"type":"Feature","properties":{"name":"Zavodovski"},"geometry":{"type":"Point","coordinates":[-27.57,-56.3]}},{"type":"Feature","properties":{"name":"Zimina"},"geometry":{"type":"Point","coordinates":[160.603,55.862]}},{"type":"Feature","properties":{"name":"Zitacuaro-Valle de Bravo"},"geometry":{"type":"Point","coordinates":[-100.25,19.4]}},{"type":"Feature","properties":{"name":"Zubair Group"},"geometry":{"type":"Point","coordinates":[42.18,15.05]}},{"type":"Feature","properties":{"name":"Zukur"},"geometry":{"type":"Point","coordinates":[42.75,14.02]}},{"type":"Feature","properties":{"name":"Zuni-Bandera"},"geometry":{"type":"Point","coordinates":[-108,34.8]}}]}